header:
  stamp:
    sec: 1112
    nanosec: 310000000
  frame_id: odom
child_frame_id: base_footprint
pose:
  pose:
    position:
      x: 1.536458606877051
      y: -0.5000030272153523
      z: 0.008528904665504983
    orientation:
      x: 4.931681115160767e-05
      y: 0.0028659839491303914
      z: 1.6078572272422417e-05
      w: 0.9999958917142285
  covariance:
  - 1.0e-05
  - 0.0
  - 0.0
  - 0.0
  - 0.0
  - 0.0
  - 0.0
  - 1.0e-05
  - 0.0
  - 0.0
  - 0.0
  - 0.0
  - 0.0
  - 0.0
  - 1000000000000.0
  - 0.0
  - 0.0
  - 0.0
  - 0.0
  - 0.0
  - 0.0
  - 1000000000000.0
  - 0.0
  - 0.0
  - 0.0
  - 0.0
  - 0.0
  - 0.0
  - 1000000000000.0
  - 0.0
  - 0.0
  - 0.0
  - 0.0
  - 0.0
  - 0.0
  - 0.001
twist:
  twist:
    linear:
      x: 2.3583127871429405e-06
      y: -9.452916927922369e-09
      z: 0.0
    angular:
      x: 0.0
      y: 0.0
      z: -1.1651288203923144e-07
  covariance:
  - 1.0e-05
  - 0.0
  - 0.0
  - 0.0
  - 0.0
  - 0.0
  - 0.0
  - 1.0e-05
  - 0.0
  - 0.0
  - 0.0
  - 0.0
  - 0.0
  - 0.0
  - 1000000000000.0
  - 0.0
  - 0.0
  - 0.0
  - 0.0
  - 0.0
  - 0.0
  - 1000000000000.0
  - 0.0
  - 0.0
  - 0.0
  - 0.0
  - 0.0
  - 0.0
  - 1000000000000.0
  - 0.0
  - 0.0
  - 0.0
  - 0.0
  - 0.0
  - 0.0
  - 0.001
---
header:
  stamp:
    sec: 1112
    nanosec: 344000000
  frame_id: odom
child_frame_id: base_footprint
pose:
  pose:
    position:
      x: 1.5364586066138834
      y: -0.5000030272165007
      z: 0.008529061422060003
    orientation:
      x: 4.931682878551385e-05
      y: 0.0028658672955313813
      z: 1.6079051997063176e-05
      w: 0.9999958920485419
  covariance:
  - 1.0e-05
  - 0.0
  - 0.0
  - 0.0
  - 0.0
  - 0.0
  - 0.0
  - 1.0e-05
  - 0.0
  - 0.0
  - 0.0
  - 0.0
  - 0.0
  - 0.0
  - 1000000000000.0
  - 0.0
  - 0.0
  - 0.0
  - 0.0
  - 0.0
  - 0.0
  - 1000000000000.0
  - 0.0
  - 0.0
  - 0.0
  - 0.0
  - 0.0
  - 0.0
  - 1000000000000.0
  - 0.0
  - 0.0
  - 0.0
  - 0.0
  - 0.0
  - 0.0
  - 0.001
twist:
  twist:
    linear:
      x: 1.640564560788714e-06
      y: 1.3211905465475916e-09
      z: 0.0
    angular:
      x: 0.0
      y: 0.0
      z: -1.1786651725874051e-07
  covariance:
  - 1.0e-05
  - 0.0
  - 0.0
  - 0.0
  - 0.0
  - 0.0
  - 0.0
  - 1.0e-05
  - 0.0
  - 0.0
  - 0.0
  - 0.0
  - 0.0
  - 0.0
  - 1000000000000.0
  - 0.0
  - 0.0
  - 0.0
  - 0.0
  - 0.0
  - 0.0
  - 1000000000000.0
  - 0.0
  - 0.0
  - 0.0
  - 0.0
  - 0.0
  - 0.0
  - 1000000000000.0
  - 0.0
  - 0.0
  - 0.0
  - 0.0
  - 0.0
  - 0.0
  - 0.001
---
header:
  stamp:
    sec: 1112
    nanosec: 378000000
  frame_id: odom
child_frame_id: base_footprint
pose:
  pose:
    position:
      x: 1.5364586168309902
      y: -0.5000030273076174
      z: 0.008532281282921416
    orientation:
      x: 4.9316709335717985e-05
      y: 0.002866267478848434
      z: 1.607955635378291e-05
      w: 0.9999958909015825
  covariance:
  - 1.0e-05
  - 0.0
  - 0.0
  - 0.0
  - 0.0
  - 0.0
  - 0.0
  - 1.0e-05
  - 0.0
  - 0.0
  - 0.0
  - 0.0
  - 0.0
  - 0.0
  - 1000000000000.0
  - 0.0
  - 0.0
  - 0.0
  - 0.0
  - 0.0
  - 0.0
  - 1000000000000.0
  - 0.0
  - 0.0
  - 0.0
  - 0.0
  - 0.0
  - 0.0
  - 1000000000000.0
  - 0.0
  - 0.0
  - 0.0
  - 0.0
  - 0.0
  - 0.0
  - 0.001
twist:
  twist:
    linear:
      x: 1.9272367440177066e-06
      y: 1.824705788488483e-08
      z: 0.0
    angular:
      x: 0.0
      y: 0.0
      z: -1.065329443067258e-07
  covariance:
  - 1.0e-05
  - 0.0
  - 0.0
  - 0.0
  - 0.0
  - 0.0
  - 0.0
  - 1.0e-05
  - 0.0
  - 0.0
  - 0.0
  - 0.0
  - 0.0
  - 0.0
  - 1000000000000.0
  - 0.0
  - 0.0
  - 0.0
  - 0.0
  - 0.0
  - 0.0
  - 1000000000000.0
  - 0.0
  - 0.0
  - 0.0
  - 0.0
  - 0.0
  - 0.0
  - 1000000000000.0
  - 0.0
  - 0.0
  - 0.0
  - 0.0
  - 0.0
  - 0.0
  - 0.001
---
header:
  stamp:
    sec: 1112
    nanosec: 412000000
  frame_id: odom
child_frame_id: base_footprint
pose:
  pose:
    position:
      x: 1.5364586327245195
      y: -0.5000030272975641
      z: 0.008534691738247193
    orientation:
      x: 4.9316481500617976e-05
      y: 0.0028669718460800093
      z: 1.6080032569084e-05
      w: 0.9999958888824249
  covariance:
  - 1.0e-05
  - 0.0
  - 0.0
  - 0.0
  - 0.0
  - 0.0
  - 0.0
  - 1.0e-05
  - 0.0
  - 0.0
  - 0.0
  - 0.0
  - 0.0
  - 0.0
  - 1000000000000.0
  - 0.0
  - 0.0
  - 0.0
  - 0.0
  - 0.0
  - 0.0
  - 1000000000000.0
  - 0.0
  - 0.0
  - 0.0
  - 0.0
  - 0.0
  - 0.0
  - 1000000000000.0
  - 0.0
  - 0.0
  - 0.0
  - 0.0
  - 0.0
  - 0.0
  - 0.001
twist:
  twist:
    linear:
      x: 4.062741448326216e-06
      y: 1.987220921032349e-08
      z: 0.0
    angular:
      x: 0.0
      y: 0.0
      z: -9.241231075802027e-08
  covariance:
  - 1.0e-05
  - 0.0
  - 0.0
  - 0.0
  - 0.0
  - 0.0
  - 0.0
  - 1.0e-05
  - 0.0
  - 0.0
  - 0.0
  - 0.0
  - 0.0
  - 0.0
  - 1000000000000.0
  - 0.0
  - 0.0
  - 0.0
  - 0.0
  - 0.0
  - 0.0
  - 1000000000000.0
  - 0.0
  - 0.0
  - 0.0
  - 0.0
  - 0.0
  - 0.0
  - 1000000000000.0
  - 0.0
  - 0.0
  - 0.0
  - 0.0
  - 0.0
  - 0.0
  - 0.001
---
header:
  stamp:
    sec: 1112
    nanosec: 446000000
  frame_id: odom
child_frame_id: base_footprint
pose:
  pose:
    position:
      x: 1.5364586534613849
      y: -0.5000030272871863
      z: 0.008533072106087952
    orientation:
      x: 4.931613121943389e-05
      y: 0.0028679091366408723
      z: 1.6080538839339205e-05
      w: 0.9999958861947982
  covariance:
  - 1.0e-05
  - 0.0
  - 0.0
  - 0.0
  - 0.0
  - 0.0
  - 0.0
  - 1.0e-05
  - 0.0
  - 0.0
  - 0.0
  - 0.0
  - 0.0
  - 0.0
  - 1000000000000.0
  - 0.0
  - 0.0
  - 0.0
  - 0.0
  - 0.0
  - 0.0
  - 1000000000000.0
  - 0.0
  - 0.0
  - 0.0
  - 0.0
  - 0.0
  - 0.0
  - 1000000000000.0
  - 0.0
  - 0.0
  - 0.0
  - 0.0
  - 0.0
  - 0.0
  - 0.001
twist:
  twist:
    linear:
      x: 5.0882851927649475e-06
      y: 9.11366876611911e-09
      z: 0.0
    angular:
      x: 0.0
      y: 0.0
      z: -9.330834318457883e-08
  covariance:
  - 1.0e-05
  - 0.0
  - 0.0
  - 0.0
  - 0.0
  - 0.0
  - 0.0
  - 1.0e-05
  - 0.0
  - 0.0
  - 0.0
  - 0.0
  - 0.0
  - 0.0
  - 1000000000000.0
  - 0.0
  - 0.0
  - 0.0
  - 0.0
  - 0.0
  - 0.0
  - 1000000000000.0
  - 0.0
  - 0.0
  - 0.0
  - 0.0
  - 0.0
  - 0.0
  - 1000000000000.0
  - 0.0
  - 0.0
  - 0.0
  - 0.0
  - 0.0
  - 0.0
  - 0.001
---
header:
  stamp:
    sec: 1112
    nanosec: 480000000
  frame_id: odom
child_frame_id: base_footprint
pose:
  pose:
    position:
      x: 1.5364586668567928
      y: -0.500003027316661
      z: 0.008530141886768943
    orientation:
      x: 4.931591632264686e-05
      y: 0.002868459014042818
      z: 1.6081091138592567e-05
      w: 0.9999958846176437
  covariance:
  - 1.0e-05
  - 0.0
  - 0.0
  - 0.0
  - 0.0
  - 0.0
  - 0.0
  - 1.0e-05
  - 0.0
  - 0.0
  - 0.0
  - 0.0
  - 0.0
  - 0.0
  - 1000000000000.0
  - 0.0
  - 0.0
  - 0.0
  - 0.0
  - 0.0
  - 0.0
  - 1000000000000.0
  - 0.0
  - 0.0
  - 0.0
  - 0.0
  - 0.0
  - 0.0
  - 1000000000000.0
  - 0.0
  - 0.0
  - 0.0
  - 0.0
  - 0.0
  - 0.0
  - 0.001
twist:
  twist:
    linear:
      x: 1.18452458879873e-06
      y: 1.972276336817415e-08
      z: 0.0
    angular:
      x: 0.0
      y: 0.0
      z: -1.1188992465785446e-07
  covariance:
  - 1.0e-05
  - 0.0
  - 0.0
  - 0.0
  - 0.0
  - 0.0
  - 0.0
  - 1.0e-05
  - 0.0
  - 0.0
  - 0.0
  - 0.0
  - 0.0
  - 0.0
  - 1000000000000.0
  - 0.0
  - 0.0
  - 0.0
  - 0.0
  - 0.0
  - 0.0
  - 1000000000000.0
  - 0.0
  - 0.0
  - 0.0
  - 0.0
  - 0.0
  - 0.0
  - 1000000000000.0
  - 0.0
  - 0.0
  - 0.0
  - 0.0
  - 0.0
  - 0.0
  - 0.001
---
header:
  stamp:
    sec: 1112
    nanosec: 514000000
  frame_id: odom
child_frame_id: base_footprint
pose:
  pose:
    position:
      x: 1.5364586589497813
      y: -0.5000030272701604
      z: 0.008526663107953874
    orientation:
      x: 4.931605996852664e-05
      y: 0.002867970694450415
      z: 1.6081512119556672e-05
      w: 0.9999958860182412
  covariance:
  - 1.0e-05
  - 0.0
  - 0.0
  - 0.0
  - 0.0
  - 0.0
  - 0.0
  - 1.0e-05
  - 0.0
  - 0.0
  - 0.0
  - 0.0
  - 0.0
  - 0.0
  - 1000000000000.0
  - 0.0
  - 0.0
  - 0.0
  - 0.0
  - 0.0
  - 0.0
  - 1000000000000.0
  - 0.0
  - 0.0
  - 0.0
  - 0.0
  - 0.0
  - 0.0
  - 1000000000000.0
  - 0.0
  - 0.0
  - 0.0
  - 0.0
  - 0.0
  - 0.0
  - 0.001
twist:
  twist:
    linear:
      x: 2.3538972438852336e-06
      y: -1.2396187064913806e-09
      z: 0.0
    angular:
      x: 0.0
      y: 0.0
      z: -1.1908891877532548e-07
  covariance:
  - 1.0e-05
  - 0.0
  - 0.0
  - 0.0
  - 0.0
  - 0.0
  - 0.0
  - 1.0e-05
  - 0.0
  - 0.0
  - 0.0
  - 0.0
  - 0.0
  - 0.0
  - 1000000000000.0
  - 0.0
  - 0.0
  - 0.0
  - 0.0
  - 0.0
  - 0.0
  - 1000000000000.0
  - 0.0
  - 0.0
  - 0.0
  - 0.0
  - 0.0
  - 0.0
  - 1000000000000.0
  - 0.0
  - 0.0
  - 0.0
  - 0.0
  - 0.0
  - 0.0
  - 0.001
---
header:
  stamp:
    sec: 1112
    nanosec: 548000000
  frame_id: odom
child_frame_id: base_footprint
pose:
  pose:
    position:
      x: 1.5364586519868237
      y: -0.5000030273272423
      z: 0.00853367684582621
    orientation:
      x: 4.9316334941431775e-05
      y: 0.002867524832346915
      z: 1.608191645317187e-05
      w: 0.9999958872968463
  covariance:
  - 1.0e-05
  - 0.0
  - 0.0
  - 0.0
  - 0.0
  - 0.0
  - 0.0
  - 1.0e-05
  - 0.0
  - 0.0
  - 0.0
  - 0.0
  - 0.0
  - 0.0
  - 1000000000000.0
  - 0.0
  - 0.0
  - 0.0
  - 0.0
  - 0.0
  - 0.0
  - 1000000000000.0
  - 0.0
  - 0.0
  - 0.0
  - 0.0
  - 0.0
  - 0.0
  - 1000000000000.0
  - 0.0
  - 0.0
  - 0.0
  - 0.0
  - 0.0
  - 0.0
  - 0.001
twist:
  twist:
    linear:
      x: 4.299965231831703e-06
      y: 1.5563406849330324e-08
      z: 0.0
    angular:
      x: 0.0
      y: 0.0
      z: -1.0458021234576258e-07
  covariance:
  - 1.0e-05
  - 0.0
  - 0.0
  - 0.0
  - 0.0
  - 0.0
  - 0.0
  - 1.0e-05
  - 0.0
  - 0.0
  - 0.0
  - 0.0
  - 0.0
  - 0.0
  - 1000000000000.0
  - 0.0
  - 0.0
  - 0.0
  - 0.0
  - 0.0
  - 0.0
  - 1000000000000.0
  - 0.0
  - 0.0
  - 0.0
  - 0.0
  - 0.0
  - 0.0
  - 1000000000000.0
  - 0.0
  - 0.0
  - 0.0
  - 0.0
  - 0.0
  - 0.0
  - 0.001
---
header:
  stamp:
    sec: 1112
    nanosec: 582000000
  frame_id: odom
child_frame_id: base_footprint
pose:
  pose:
    position:
      x: 1.5364586364385204
      y: -0.5000030272386464
      z: 0.008529004436980955
    orientation:
      x: 4.931657213859444e-05
      y: 0.002866652325420592
      z: 1.6082331803707674e-05
      w: 0.999995889798393
  covariance:
  - 1.0e-05
  - 0.0
  - 0.0
  - 0.0
  - 0.0
  - 0.0
  - 0.0
  - 1.0e-05
  - 0.0
  - 0.0
  - 0.0
  - 0.0
  - 0.0
  - 0.0
  - 1000000000000.0
  - 0.0
  - 0.0
  - 0.0
  - 0.0
  - 0.0
  - 0.0
  - 1000000000000.0
  - 0.0
  - 0.0
  - 0.0
  - 0.0
  - 0.0
  - 0.0
  - 1000000000000.0
  - 0.0
  - 0.0
  - 0.0
  - 0.0
  - 0.0
  - 0.0
  - 0.001
twist:
  twist:
    linear:
      x: 2.350636501775952e-06
      y: -9.56647068530939e-09
      z: 0.0
    angular:
      x: 0.0
      y: 0.0
      z: -1.172865893140021e-07
  covariance:
  - 1.0e-05
  - 0.0
  - 0.0
  - 0.0
  - 0.0
  - 0.0
  - 0.0
  - 1.0e-05
  - 0.0
  - 0.0
  - 0.0
  - 0.0
  - 0.0
  - 0.0
  - 1000000000000.0
  - 0.0
  - 0.0
  - 0.0
  - 0.0
  - 0.0
  - 0.0
  - 1000000000000.0
  - 0.0
  - 0.0
  - 0.0
  - 0.0
  - 0.0
  - 0.0
  - 1000000000000.0
  - 0.0
  - 0.0
  - 0.0
  - 0.0
  - 0.0
  - 0.0
  - 0.001
---
header:
  stamp:
    sec: 1112
    nanosec: 616000000
  frame_id: odom
child_frame_id: base_footprint
pose:
  pose:
    position:
      x: 1.5364586358050243
      y: -0.5000030272404746
      z: 0.008529064696053721
    orientation:
      x: 4.9316609186510515e-05
      y: 0.002866517148525459
      z: 1.6082797102942448e-05
      w: 0.9999958901858812
  covariance:
  - 1.0e-05
  - 0.0
  - 0.0
  - 0.0
  - 0.0
  - 0.0
  - 0.0
  - 1.0e-05
  - 0.0
  - 0.0
  - 0.0
  - 0.0
  - 0.0
  - 0.0
  - 1000000000000.0
  - 0.0
  - 0.0
  - 0.0
  - 0.0
  - 0.0
  - 0.0
  - 1000000000000.0
  - 0.0
  - 0.0
  - 0.0
  - 0.0
  - 0.0
  - 0.0
  - 1000000000000.0
  - 0.0
  - 0.0
  - 0.0
  - 0.0
  - 0.0
  - 0.0
  - 0.001
twist:
  twist:
    linear:
      x: 1.631507674388023e-06
      y: 1.3103956876265872e-09
      z: 0.0
    angular:
      x: 0.0
      y: 0.0
      z: -1.1846001254598019e-07
  covariance:
  - 1.0e-05
  - 0.0
  - 0.0
  - 0.0
  - 0.0
  - 0.0
  - 0.0
  - 1.0e-05
  - 0.0
  - 0.0
  - 0.0
  - 0.0
  - 0.0
  - 0.0
  - 1000000000000.0
  - 0.0
  - 0.0
  - 0.0
  - 0.0
  - 0.0
  - 0.0
  - 1000000000000.0
  - 0.0
  - 0.0
  - 0.0
  - 0.0
  - 0.0
  - 0.0
  - 1000000000000.0
  - 0.0
  - 0.0
  - 0.0
  - 0.0
  - 0.0
  - 0.0
  - 0.001
---
header:
  stamp:
    sec: 1112
    nanosec: 650000000
  frame_id: odom
child_frame_id: base_footprint
pose:
  pose:
    position:
      x: 1.5364586456371425
      y: -0.5000030273320505
      z: 0.008532281583545395
    orientation:
      x: 4.9316509861132426e-05
      y: 0.0028668982650457303
      z: 1.6083302265903335e-05
      w: 0.9999958890933237
  covariance:
  - 1.0e-05
  - 0.0
  - 0.0
  - 0.0
  - 0.0
  - 0.0
  - 0.0
  - 1.0e-05
  - 0.0
  - 0.0
  - 0.0
  - 0.0
  - 0.0
  - 0.0
  - 1000000000000.0
  - 0.0
  - 0.0
  - 0.0
  - 0.0
  - 0.0
  - 0.0
  - 1000000000000.0
  - 0.0
  - 0.0
  - 0.0
  - 0.0
  - 0.0
  - 0.0
  - 1000000000000.0
  - 0.0
  - 0.0
  - 0.0
  - 0.0
  - 0.0
  - 0.0
  - 0.001
twist:
  twist:
    linear:
      x: 1.915590953131028e-06
      y: 1.823451792255662e-08
      z: 0.0
    angular:
      x: 0.0
      y: 0.0
      z: -1.0612739762569296e-07
  covariance:
  - 1.0e-05
  - 0.0
  - 0.0
  - 0.0
  - 0.0
  - 0.0
  - 0.0
  - 1.0e-05
  - 0.0
  - 0.0
  - 0.0
  - 0.0
  - 0.0
  - 0.0
  - 1000000000000.0
  - 0.0
  - 0.0
  - 0.0
  - 0.0
  - 0.0
  - 0.0
  - 1000000000000.0
  - 0.0
  - 0.0
  - 0.0
  - 0.0
  - 0.0
  - 0.0
  - 1000000000000.0
  - 0.0
  - 0.0
  - 0.0
  - 0.0
  - 0.0
  - 0.0
  - 0.001
---
header:
  stamp:
    sec: 1112
    nanosec: 684000000
  frame_id: odom
child_frame_id: base_footprint
pose:
  pose:
    position:
      x: 1.5364586611528217
      y: -0.5000030273223912
      z: 0.008534692004305058
    orientation:
      x: 4.9316301319583746e-05
      y: 0.002867583702809384
      z: 1.6083784885259317e-05
      w: 0.999995887128003
  covariance:
  - 1.0e-05
  - 0.0
  - 0.0
  - 0.0
  - 0.0
  - 0.0
  - 0.0
  - 1.0e-05
  - 0.0
  - 0.0
  - 0.0
  - 0.0
  - 0.0
  - 0.0
  - 1000000000000.0
  - 0.0
  - 0.0
  - 0.0
  - 0.0
  - 0.0
  - 0.0
  - 1000000000000.0
  - 0.0
  - 0.0
  - 0.0
  - 0.0
  - 0.0
  - 0.0
  - 1000000000000.0
  - 0.0
  - 0.0
  - 0.0
  - 0.0
  - 0.0
  - 0.0
  - 0.001
twist:
  twist:
    linear:
      x: 4.051161516773992e-06
      y: 1.986010863442774e-08
      z: 0.0
    angular:
      x: 0.0
      y: 0.0
      z: -9.236773823990842e-08
  covariance:
  - 1.0e-05
  - 0.0
  - 0.0
  - 0.0
  - 0.0
  - 0.0
  - 0.0
  - 1.0e-05
  - 0.0
  - 0.0
  - 0.0
  - 0.0
  - 0.0
  - 0.0
  - 1000000000000.0
  - 0.0
  - 0.0
  - 0.0
  - 0.0
  - 0.0
  - 0.0
  - 1000000000000.0
  - 0.0
  - 0.0
  - 0.0
  - 0.0
  - 0.0
  - 0.0
  - 1000000000000.0
  - 0.0
  - 0.0
  - 0.0
  - 0.0
  - 0.0
  - 0.0
  - 0.001
---
header:
  stamp:
    sec: 1112
    nanosec: 718000000
  frame_id: odom
child_frame_id: base_footprint
pose:
  pose:
    position:
      x: 1.5364586714540605
      y: -0.5000030273268201
      z: 0.008528821421372667
    orientation:
      x: 4.9316084470985525e-05
      y: 0.0028679903639657303
      z: 1.6084287900844072e-05
      w: 0.9999958859617831
  covariance:
  - 1.0e-05
  - 0.0
  - 0.0
  - 0.0
  - 0.0
  - 0.0
  - 0.0
  - 1.0e-05
  - 0.0
  - 0.0
  - 0.0
  - 0.0
  - 0.0
  - 0.0
  - 1000000000000.0
  - 0.0
  - 0.0
  - 0.0
  - 0.0
  - 0.0
  - 0.0
  - 1000000000000.0
  - 0.0
  - 0.0
  - 0.0
  - 0.0
  - 0.0
  - 0.0
  - 1000000000000.0
  - 0.0
  - 0.0
  - 0.0
  - 0.0
  - 0.0
  - 0.0
  - 0.001
twist:
  twist:
    linear:
      x: 3.7137931018683534e-06
      y: 9.069121766553714e-09
      z: 0.0
    angular:
      x: 0.0
      y: 0.0
      z: -1.0415220171398144e-07
  covariance:
  - 1.0e-05
  - 0.0
  - 0.0
  - 0.0
  - 0.0
  - 0.0
  - 0.0
  - 1.0e-05
  - 0.0
  - 0.0
  - 0.0
  - 0.0
  - 0.0
  - 0.0
  - 1000000000000.0
  - 0.0
  - 0.0
  - 0.0
  - 0.0
  - 0.0
  - 0.0
  - 1000000000000.0
  - 0.0
  - 0.0
  - 0.0
  - 0.0
  - 0.0
  - 0.0
  - 1000000000000.0
  - 0.0
  - 0.0
  - 0.0
  - 0.0
  - 0.0
  - 0.0
  - 0.001
---
header:
  stamp:
    sec: 1112
    nanosec: 752000000
  frame_id: odom
child_frame_id: base_footprint
pose:
  pose:
    position:
      x: 1.5364586835977605
      y: -0.5000030273370137
      z: 0.008535627565401811
    orientation:
      x: 4.931602901850527e-05
      y: 0.002868500948400872
      z: 1.6084786106112158e-05
      w: 0.9999958844972904
  covariance:
  - 1.0e-05
  - 0.0
  - 0.0
  - 0.0
  - 0.0
  - 0.0
  - 0.0
  - 1.0e-05
  - 0.0
  - 0.0
  - 0.0
  - 0.0
  - 0.0
  - 0.0
  - 1000000000000.0
  - 0.0
  - 0.0
  - 0.0
  - 0.0
  - 0.0
  - 0.0
  - 1000000000000.0
  - 0.0
  - 0.0
  - 0.0
  - 0.0
  - 0.0
  - 0.0
  - 1000000000000.0
  - 0.0
  - 0.0
  - 0.0
  - 0.0
  - 0.0
  - 0.0
  - 0.001
twist:
  twist:
    linear:
      x: 4.005025154935332e-06
      y: 2.4194154488526002e-08
      z: 0.0
    angular:
      x: 0.0
      y: 0.0
      z: -9.526794513515982e-08
  covariance:
  - 1.0e-05
  - 0.0
  - 0.0
  - 0.0
  - 0.0
  - 0.0
  - 0.0
  - 1.0e-05
  - 0.0
  - 0.0
  - 0.0
  - 0.0
  - 0.0
  - 0.0
  - 1000000000000.0
  - 0.0
  - 0.0
  - 0.0
  - 0.0
  - 0.0
  - 0.0
  - 1000000000000.0
  - 0.0
  - 0.0
  - 0.0
  - 0.0
  - 0.0
  - 0.0
  - 1000000000000.0
  - 0.0
  - 0.0
  - 0.0
  - 0.0
  - 0.0
  - 0.0
  - 0.001
---
header:
  stamp:
    sec: 1112
    nanosec: 786000000
  frame_id: odom
child_frame_id: base_footprint
pose:
  pose:
    position:
      x: 1.5364586711868713
      y: -0.5000030272611291
      z: 0.008527378555694147
    orientation:
      x: 4.9316182685193565e-05
      y: 0.0028677741137778834
      z: 1.6085213358389783e-05
      w: 0.9999958865819462
  covariance:
  - 1.0e-05
  - 0.0
  - 0.0
  - 0.0
  - 0.0
  - 0.0
  - 0.0
  - 1.0e-05
  - 0.0
  - 0.0
  - 0.0
  - 0.0
  - 0.0
  - 0.0
  - 1000000000000.0
  - 0.0
  - 0.0
  - 0.0
  - 0.0
  - 0.0
  - 0.0
  - 1000000000000.0
  - 0.0
  - 0.0
  - 0.0
  - 0.0
  - 0.0
  - 0.0
  - 1000000000000.0
  - 0.0
  - 0.0
  - 0.0
  - 0.0
  - 0.0
  - 0.0
  - 0.001
twist:
  twist:
    linear:
      x: 9.07872274132843e-07
      y: 2.2385438338417795e-09
      z: 0.0
    angular:
      x: 0.0
      y: 0.0
      z: -1.2825648378907785e-07
  covariance:
  - 1.0e-05
  - 0.0
  - 0.0
  - 0.0
  - 0.0
  - 0.0
  - 0.0
  - 1.0e-05
  - 0.0
  - 0.0
  - 0.0
  - 0.0
  - 0.0
  - 0.0
  - 1000000000000.0
  - 0.0
  - 0.0
  - 0.0
  - 0.0
  - 0.0
  - 0.0
  - 1000000000000.0
  - 0.0
  - 0.0
  - 0.0
  - 0.0
  - 0.0
  - 0.0
  - 1000000000000.0
  - 0.0
  - 0.0
  - 0.0
  - 0.0
  - 0.0
  - 0.0
  - 0.001
---
header:
  stamp:
    sec: 1112
    nanosec: 820000000
  frame_id: odom
child_frame_id: base_footprint
pose:
  pose:
    position:
      x: 1.5364586610358641
      y: -0.500003027359022
      z: 0.008533589100705891
    orientation:
      x: 4.9316490940814694e-05
      y: 0.0028671680096868843
      z: 1.6085609030604925e-05
      w: 0.9999958883199176
  covariance:
  - 1.0e-05
  - 0.0
  - 0.0
  - 0.0
  - 0.0
  - 0.0
  - 0.0
  - 1.0e-05
  - 0.0
  - 0.0
  - 0.0
  - 0.0
  - 0.0
  - 0.0
  - 1000000000000.0
  - 0.0
  - 0.0
  - 0.0
  - 0.0
  - 0.0
  - 0.0
  - 1000000000000.0
  - 0.0
  - 0.0
  - 0.0
  - 0.0
  - 0.0
  - 0.0
  - 1000000000000.0
  - 0.0
  - 0.0
  - 0.0
  - 0.0
  - 0.0
  - 0.0
  - 0.001
twist:
  twist:
    linear:
      x: 4.289954878840507e-06
      y: 1.5521189903043876e-08
      z: 0.0
    angular:
      x: 0.0
      y: 0.0
      z: -1.0330457782808271e-07
  covariance:
  - 1.0e-05
  - 0.0
  - 0.0
  - 0.0
  - 0.0
  - 0.0
  - 0.0
  - 1.0e-05
  - 0.0
  - 0.0
  - 0.0
  - 0.0
  - 0.0
  - 0.0
  - 1000000000000.0
  - 0.0
  - 0.0
  - 0.0
  - 0.0
  - 0.0
  - 0.0
  - 1000000000000.0
  - 0.0
  - 0.0
  - 0.0
  - 0.0
  - 0.0
  - 0.0
  - 1000000000000.0
  - 0.0
  - 0.0
  - 0.0
  - 0.0
  - 0.0
  - 0.0
  - 0.001
---
header:
  stamp:
    sec: 1112
    nanosec: 854000000
  frame_id: odom
child_frame_id: base_footprint
pose:
  pose:
    position:
      x: 1.5364586451620221
      y: -0.5000030272705195
      z: 0.0085289999406887
    orientation:
      x: 4.9316725578886206e-05
      y: 0.002866279289463867
      z: 1.6086043490900956e-05
      w: 0.9999958908676249
  covariance:
  - 1.0e-05
  - 0.0
  - 0.0
  - 0.0
  - 0.0
  - 0.0
  - 0.0
  - 1.0e-05
  - 0.0
  - 0.0
  - 0.0
  - 0.0
  - 0.0
  - 0.0
  - 1000000000000.0
  - 0.0
  - 0.0
  - 0.0
  - 0.0
  - 0.0
  - 0.0
  - 1000000000000.0
  - 0.0
  - 0.0
  - 0.0
  - 0.0
  - 0.0
  - 0.0
  - 1000000000000.0
  - 0.0
  - 0.0
  - 0.0
  - 0.0
  - 0.0
  - 0.0
  - 0.001
twist:
  twist:
    linear:
      x: 2.340301098070888e-06
      y: -9.556249539877216e-09
      z: 0.0
    angular:
      x: 0.0
      y: 0.0
      z: -1.1693298736349676e-07
  covariance:
  - 1.0e-05
  - 0.0
  - 0.0
  - 0.0
  - 0.0
  - 0.0
  - 0.0
  - 1.0e-05
  - 0.0
  - 0.0
  - 0.0
  - 0.0
  - 0.0
  - 0.0
  - 1000000000000.0
  - 0.0
  - 0.0
  - 0.0
  - 0.0
  - 0.0
  - 0.0
  - 1000000000000.0
  - 0.0
  - 0.0
  - 0.0
  - 0.0
  - 0.0
  - 0.0
  - 1000000000000.0
  - 0.0
  - 0.0
  - 0.0
  - 0.0
  - 0.0
  - 0.0
  - 0.001
---
header:
  stamp:
    sec: 1112
    nanosec: 888000000
  frame_id: odom
child_frame_id: base_footprint
pose:
  pose:
    position:
      x: 1.5364586442223898
      y: -0.5000030272722219
      z: 0.008529064616130132
    orientation:
      x: 4.931675855243439e-05
      y: 0.0028661287688418998
      z: 1.608650106734141e-05
      w: 0.9999958912990405
  covariance:
  - 1.0e-05
  - 0.0
  - 0.0
  - 0.0
  - 0.0
  - 0.0
  - 0.0
  - 1.0e-05
  - 0.0
  - 0.0
  - 0.0
  - 0.0
  - 0.0
  - 0.0
  - 1000000000000.0
  - 0.0
  - 0.0
  - 0.0
  - 0.0
  - 0.0
  - 0.0
  - 1000000000000.0
  - 0.0
  - 0.0
  - 0.0
  - 0.0
  - 0.0
  - 0.0
  - 1000000000000.0
  - 0.0
  - 0.0
  - 0.0
  - 0.0
  - 0.0
  - 0.0
  - 0.001
twist:
  twist:
    linear:
      x: 1.6215656437374788e-06
      y: 1.3055964334640975e-09
      z: 0.0
    angular:
      x: 0.0
      y: 0.0
      z: -1.194297179695324e-07
  covariance:
  - 1.0e-05
  - 0.0
  - 0.0
  - 0.0
  - 0.0
  - 0.0
  - 0.0
  - 1.0e-05
  - 0.0
  - 0.0
  - 0.0
  - 0.0
  - 0.0
  - 0.0
  - 1000000000000.0
  - 0.0
  - 0.0
  - 0.0
  - 0.0
  - 0.0
  - 0.0
  - 1000000000000.0
  - 0.0
  - 0.0
  - 0.0
  - 0.0
  - 0.0
  - 0.0
  - 1000000000000.0
  - 0.0
  - 0.0
  - 0.0
  - 0.0
  - 0.0
  - 0.0
  - 0.001
---
header:
  stamp:
    sec: 1112
    nanosec: 922000000
  frame_id: odom
child_frame_id: base_footprint
pose:
  pose:
    position:
      x: 1.5364586537504246
      y: -0.5000030273636985
      z: 0.008532281557800772
    orientation:
      x: 4.931665495952426e-05
      y: 0.002866494600437317
      z: 1.608699612802462e-05
      w: 0.9999958902504459
  covariance:
  - 1.0e-05
  - 0.0
  - 0.0
  - 0.0
  - 0.0
  - 0.0
  - 0.0
  - 1.0e-05
  - 0.0
  - 0.0
  - 0.0
  - 0.0
  - 0.0
  - 0.0
  - 1000000000000.0
  - 0.0
  - 0.0
  - 0.0
  - 0.0
  - 0.0
  - 0.0
  - 1000000000000.0
  - 0.0
  - 0.0
  - 0.0
  - 0.0
  - 0.0
  - 0.0
  - 1000000000000.0
  - 0.0
  - 0.0
  - 0.0
  - 0.0
  - 0.0
  - 0.0
  - 0.001
twist:
  twist:
    linear:
      x: 1.906806136898429e-06
      y: 1.823682646400934e-08
      z: 0.0
    angular:
      x: 0.0
      y: 0.0
      z: -1.0625659759828448e-07
  covariance:
  - 1.0e-05
  - 0.0
  - 0.0
  - 0.0
  - 0.0
  - 0.0
  - 0.0
  - 1.0e-05
  - 0.0
  - 0.0
  - 0.0
  - 0.0
  - 0.0
  - 0.0
  - 1000000000000.0
  - 0.0
  - 0.0
  - 0.0
  - 0.0
  - 0.0
  - 0.0
  - 1000000000000.0
  - 0.0
  - 0.0
  - 0.0
  - 0.0
  - 0.0
  - 0.0
  - 1000000000000.0
  - 0.0
  - 0.0
  - 0.0
  - 0.0
  - 0.0
  - 0.0
  - 0.001
---
header:
  stamp:
    sec: 1112
    nanosec: 956000000
  frame_id: odom
child_frame_id: base_footprint
pose:
  pose:
    position:
      x: 1.536458668960701
      y: -0.5000030273539535
      z: 0.008534691978187731
    orientation:
      x: 4.93164419573415e-05
      y: 0.0028671647902773403
      z: 1.6087483982696947e-05
      w: 0.9999958883291206
  covariance:
  - 1.0e-05
  - 0.0
  - 0.0
  - 0.0
  - 0.0
  - 0.0
  - 0.0
  - 1.0e-05
  - 0.0
  - 0.0
  - 0.0
  - 0.0
  - 0.0
  - 0.0
  - 1000000000000.0
  - 0.0
  - 0.0
  - 0.0
  - 0.0
  - 0.0
  - 0.0
  - 1000000000000.0
  - 0.0
  - 0.0
  - 0.0
  - 0.0
  - 0.0
  - 0.0
  - 1000000000000.0
  - 0.0
  - 0.0
  - 0.0
  - 0.0
  - 0.0
  - 0.0
  - 0.001
twist:
  twist:
    linear:
      x: 4.042410557493441e-06
      y: 1.9861569387924206e-08
      z: 0.0
    angular:
      x: 0.0
      y: 0.0
      z: -9.197195437808167e-08
  covariance:
  - 1.0e-05
  - 0.0
  - 0.0
  - 0.0
  - 0.0
  - 0.0
  - 0.0
  - 1.0e-05
  - 0.0
  - 0.0
  - 0.0
  - 0.0
  - 0.0
  - 0.0
  - 1000000000000.0
  - 0.0
  - 0.0
  - 0.0
  - 0.0
  - 0.0
  - 0.0
  - 1000000000000.0
  - 0.0
  - 0.0
  - 0.0
  - 0.0
  - 0.0
  - 0.0
  - 1000000000000.0
  - 0.0
  - 0.0
  - 0.0
  - 0.0
  - 0.0
  - 0.0
  - 0.001
---
header:
  stamp:
    sec: 1112
    nanosec: 990000000
  frame_id: odom
child_frame_id: base_footprint
pose:
  pose:
    position:
      x: 1.5364586890177916
      y: -0.5000030273438716
      z: 0.008533072333531205
    orientation:
      x: 4.931610559640643e-05
      y: 0.0028680680864233195
      z: 1.6087989660690584e-05
      w: 0.9999958857388115
  covariance:
  - 1.0e-05
  - 0.0
  - 0.0
  - 0.0
  - 0.0
  - 0.0
  - 0.0
  - 1.0e-05
  - 0.0
  - 0.0
  - 0.0
  - 0.0
  - 0.0
  - 0.0
  - 1000000000000.0
  - 0.0
  - 0.0
  - 0.0
  - 0.0
  - 0.0
  - 0.0
  - 1000000000000.0
  - 0.0
  - 0.0
  - 0.0
  - 0.0
  - 0.0
  - 0.0
  - 1000000000000.0
  - 0.0
  - 0.0
  - 0.0
  - 0.0
  - 0.0
  - 0.0
  - 0.001
twist:
  twist:
    linear:
      x: 5.068901446752948e-06
      y: 9.107174959111582e-09
      z: 0.0
    angular:
      x: 0.0
      y: 0.0
      z: -9.39203399907424e-08
  covariance:
  - 1.0e-05
  - 0.0
  - 0.0
  - 0.0
  - 0.0
  - 0.0
  - 0.0
  - 1.0e-05
  - 0.0
  - 0.0
  - 0.0
  - 0.0
  - 0.0
  - 0.0
  - 1000000000000.0
  - 0.0
  - 0.0
  - 0.0
  - 0.0
  - 0.0
  - 0.0
  - 1000000000000.0
  - 0.0
  - 0.0
  - 0.0
  - 0.0
  - 0.0
  - 0.0
  - 1000000000000.0
  - 0.0
  - 0.0
  - 0.0
  - 0.0
  - 0.0
  - 0.0
  - 0.001
---
header:
  stamp:
    sec: 1113
    nanosec: 24000000
  frame_id: odom
child_frame_id: base_footprint
pose:
  pose:
    position:
      x: 1.5364587017358824
      y: -0.5000030273736173
      z: 0.008530142091656378
    orientation:
      x: 4.931590375019415e-05
      y: 0.0028685841453243524
      z: 1.6088532887974357e-05
      w: 0.9999958842585813
  covariance:
  - 1.0e-05
  - 0.0
  - 0.0
  - 0.0
  - 0.0
  - 0.0
  - 0.0
  - 1.0e-05
  - 0.0
  - 0.0
  - 0.0
  - 0.0
  - 0.0
  - 0.0
  - 1000000000000.0
  - 0.0
  - 0.0
  - 0.0
  - 0.0
  - 0.0
  - 0.0
  - 1000000000000.0
  - 0.0
  - 0.0
  - 0.0
  - 0.0
  - 0.0
  - 0.0
  - 1000000000000.0
  - 0.0
  - 0.0
  - 0.0
  - 0.0
  - 0.0
  - 0.0
  - 0.001
twist:
  twist:
    linear:
      x: 1.1645788166028798e-06
      y: 1.9715352011683494e-08
      z: 0.0
    angular:
      x: 0.0
      y: 0.0
      z: -1.1233021231138602e-07
  covariance:
  - 1.0e-05
  - 0.0
  - 0.0
  - 0.0
  - 0.0
  - 0.0
  - 0.0
  - 1.0e-05
  - 0.0
  - 0.0
  - 0.0
  - 0.0
  - 0.0
  - 0.0
  - 1000000000000.0
  - 0.0
  - 0.0
  - 0.0
  - 0.0
  - 0.0
  - 0.0
  - 1000000000000.0
  - 0.0
  - 0.0
  - 0.0
  - 0.0
  - 0.0
  - 0.0
  - 1000000000000.0
  - 0.0
  - 0.0
  - 0.0
  - 0.0
  - 0.0
  - 0.0
  - 0.001
---
header:
  stamp:
    sec: 1113
    nanosec: 58000000
  frame_id: odom
child_frame_id: base_footprint
pose:
  pose:
    position:
      x: 1.5364586931566377
      y: -0.5000030273273641
      z: 0.008526663301759696
    orientation:
      x: 4.93160595391285e-05
      y: 0.0028680621781634577
      z: 1.6088953594954945e-05
      w: 0.9999958857557436
  covariance:
  - 1.0e-05
  - 0.0
  - 0.0
  - 0.0
  - 0.0
  - 0.0
  - 0.0
  - 1.0e-05
  - 0.0
  - 0.0
  - 0.0
  - 0.0
  - 0.0
  - 0.0
  - 1000000000000.0
  - 0.0
  - 0.0
  - 0.0
  - 0.0
  - 0.0
  - 0.0
  - 1000000000000.0
  - 0.0
  - 0.0
  - 0.0
  - 0.0
  - 0.0
  - 0.0
  - 1000000000000.0
  - 0.0
  - 0.0
  - 0.0
  - 0.0
  - 0.0
  - 0.0
  - 0.001
twist:
  twist:
    linear:
      x: 2.3345553561893562e-06
      y: -1.2433251393993781e-09
      z: 0.0
    angular:
      x: 0.0
      y: 0.0
      z: -1.1899229384827447e-07
  covariance:
  - 1.0e-05
  - 0.0
  - 0.0
  - 0.0
  - 0.0
  - 0.0
  - 0.0
  - 1.0e-05
  - 0.0
  - 0.0
  - 0.0
  - 0.0
  - 0.0
  - 0.0
  - 1000000000000.0
  - 0.0
  - 0.0
  - 0.0
  - 0.0
  - 0.0
  - 0.0
  - 1000000000000.0
  - 0.0
  - 0.0
  - 0.0
  - 0.0
  - 0.0
  - 0.0
  - 1000000000000.0
  - 0.0
  - 0.0
  - 0.0
  - 0.0
  - 0.0
  - 0.0
  - 0.001
---
header:
  stamp:
    sec: 1113
    nanosec: 92000000
  frame_id: odom
child_frame_id: base_footprint
pose:
  pose:
    position:
      x: 1.5364586855234674
      y: -0.5000030273846869
      z: 0.00853367704309334
    orientation:
      x: 4.931634578002991e-05
      y: 0.0028675828371447225
      z: 1.6089360108184863e-05
      w: 0.9999958871303934
  covariance:
  - 1.0e-05
  - 0.0
  - 0.0
  - 0.0
  - 0.0
  - 0.0
  - 0.0
  - 1.0e-05
  - 0.0
  - 0.0
  - 0.0
  - 0.0
  - 0.0
  - 0.0
  - 1000000000000.0
  - 0.0
  - 0.0
  - 0.0
  - 0.0
  - 0.0
  - 0.0
  - 1000000000000.0
  - 0.0
  - 0.0
  - 0.0
  - 0.0
  - 0.0
  - 0.0
  - 1000000000000.0
  - 0.0
  - 0.0
  - 0.0
  - 0.0
  - 0.0
  - 0.0
  - 0.001
twist:
  twist:
    linear:
      x: 4.280600764424726e-06
      y: 1.555832853035335e-08
      z: 0.0
    angular:
      x: 0.0
      y: 0.0
      z: -1.0471133334992528e-07
  covariance:
  - 1.0e-05
  - 0.0
  - 0.0
  - 0.0
  - 0.0
  - 0.0
  - 0.0
  - 1.0e-05
  - 0.0
  - 0.0
  - 0.0
  - 0.0
  - 0.0
  - 0.0
  - 1000000000000.0
  - 0.0
  - 0.0
  - 0.0
  - 0.0
  - 0.0
  - 0.0
  - 1000000000000.0
  - 0.0
  - 0.0
  - 0.0
  - 0.0
  - 0.0
  - 0.0
  - 1000000000000.0
  - 0.0
  - 0.0
  - 0.0
  - 0.0
  - 0.0
  - 0.0
  - 0.001
---
header:
  stamp:
    sec: 1113
    nanosec: 126000000
  frame_id: odom
child_frame_id: base_footprint
pose:
  pose:
    position:
      x: 1.536458669309138
      y: -0.5000030272963114
      z: 0.008529004619946998
    orientation:
      x: 4.9316593437066076e-05
      y: 0.0028666770159870483
      z: 1.6089772194933557e-05
      w: 0.9999958897274923
  covariance:
  - 1.0e-05
  - 0.0
  - 0.0
  - 0.0
  - 0.0
  - 0.0
  - 0.0
  - 1.0e-05
  - 0.0
  - 0.0
  - 0.0
  - 0.0
  - 0.0
  - 0.0
  - 1000000000000.0
  - 0.0
  - 0.0
  - 0.0
  - 0.0
  - 0.0
  - 0.0
  - 1000000000000.0
  - 0.0
  - 0.0
  - 0.0
  - 0.0
  - 0.0
  - 0.0
  - 1000000000000.0
  - 0.0
  - 0.0
  - 0.0
  - 0.0
  - 0.0
  - 0.0
  - 0.001
twist:
  twist:
    linear:
      x: 2.3313494939260254e-06
      y: -9.572095576653686e-09
      z: 0.0
    angular:
      x: 0.0
      y: 0.0
      z: -1.176533768623376e-07
  covariance:
  - 1.0e-05
  - 0.0
  - 0.0
  - 0.0
  - 0.0
  - 0.0
  - 0.0
  - 1.0e-05
  - 0.0
  - 0.0
  - 0.0
  - 0.0
  - 0.0
  - 0.0
  - 1000000000000.0
  - 0.0
  - 0.0
  - 0.0
  - 0.0
  - 0.0
  - 0.0
  - 1000000000000.0
  - 0.0
  - 0.0
  - 0.0
  - 0.0
  - 0.0
  - 0.0
  - 1000000000000.0
  - 0.0
  - 0.0
  - 0.0
  - 0.0
  - 0.0
  - 0.0
  - 0.001
---
header:
  stamp:
    sec: 1113
    nanosec: 160000000
  frame_id: odom
child_frame_id: base_footprint
pose:
  pose:
    position:
      x: 1.536458668012253
      y: -0.500003027298341
      z: 0.00852906486843542
    orientation:
      x: 4.931664013843208e-05
      y: 0.0028665086882105994
      z: 1.6090234223110396e-05
      w: 0.9999958902100118
  covariance:
  - 1.0e-05
  - 0.0
  - 0.0
  - 0.0
  - 0.0
  - 0.0
  - 0.0
  - 1.0e-05
  - 0.0
  - 0.0
  - 0.0
  - 0.0
  - 0.0
  - 0.0
  - 1000000000000.0
  - 0.0
  - 0.0
  - 0.0
  - 0.0
  - 0.0
  - 0.0
  - 1000000000000.0
  - 0.0
  - 0.0
  - 0.0
  - 0.0
  - 0.0
  - 0.0
  - 1000000000000.0
  - 0.0
  - 0.0
  - 0.0
  - 0.0
  - 0.0
  - 0.0
  - 0.001
twist:
  twist:
    linear:
      x: 1.6122435499517587e-06
      y: 1.3056744114170076e-09
      z: 0.0
    angular:
      x: 0.0
      y: 0.0
      z: -1.1864291051956631e-07
  covariance:
  - 1.0e-05
  - 0.0
  - 0.0
  - 0.0
  - 0.0
  - 0.0
  - 0.0
  - 1.0e-05
  - 0.0
  - 0.0
  - 0.0
  - 0.0
  - 0.0
  - 0.0
  - 1000000000000.0
  - 0.0
  - 0.0
  - 0.0
  - 0.0
  - 0.0
  - 0.0
  - 1000000000000.0
  - 0.0
  - 0.0
  - 0.0
  - 0.0
  - 0.0
  - 0.0
  - 1000000000000.0
  - 0.0
  - 0.0
  - 0.0
  - 0.0
  - 0.0
  - 0.0
  - 0.001
---
header:
  stamp:
    sec: 1113
    nanosec: 194000000
  frame_id: odom
child_frame_id: base_footprint
pose:
  pose:
    position:
      x: 1.536458677184057
      y: -0.5000030273901058
      z: 0.008532281747313228
    orientation:
      x: 4.9316549673466066e-05
      y: 0.002866856812903655
      z: 1.609073911934039e-05
      w: 0.999995889212041
  covariance:
  - 1.0e-05
  - 0.0
  - 0.0
  - 0.0
  - 0.0
  - 0.0
  - 0.0
  - 1.0e-05
  - 0.0
  - 0.0
  - 0.0
  - 0.0
  - 0.0
  - 0.0
  - 1000000000000.0
  - 0.0
  - 0.0
  - 0.0
  - 0.0
  - 0.0
  - 0.0
  - 1000000000000.0
  - 0.0
  - 0.0
  - 0.0
  - 0.0
  - 0.0
  - 0.0
  - 1000000000000.0
  - 0.0
  - 0.0
  - 0.0
  - 0.0
  - 0.0
  - 0.0
  - 0.001
twist:
  twist:
    linear:
      x: 1.896179281068835e-06
      y: 1.82289272732824e-08
      z: 0.0
    angular:
      x: 0.0
      y: 0.0
      z: -1.0622396503768745e-07
  covariance:
  - 1.0e-05
  - 0.0
  - 0.0
  - 0.0
  - 0.0
  - 0.0
  - 0.0
  - 1.0e-05
  - 0.0
  - 0.0
  - 0.0
  - 0.0
  - 0.0
  - 0.0
  - 1000000000000.0
  - 0.0
  - 0.0
  - 0.0
  - 0.0
  - 0.0
  - 0.0
  - 1000000000000.0
  - 0.0
  - 0.0
  - 0.0
  - 0.0
  - 0.0
  - 0.0
  - 1000000000000.0
  - 0.0
  - 0.0
  - 0.0
  - 0.0
  - 0.0
  - 0.0
  - 0.001
---
header:
  stamp:
    sec: 1113
    nanosec: 228000000
  frame_id: odom
child_frame_id: base_footprint
pose:
  pose:
    position:
      x: 1.5364586920429524
      y: -0.5000030273806189
      z: 0.008534692166281133
    orientation:
      x: 4.931634924152239e-05
      y: 0.0028675094143772706
      z: 1.6091220743676246e-05
      w: 0.9999958873409074
  covariance:
  - 1.0e-05
  - 0.0
  - 0.0
  - 0.0
  - 0.0
  - 0.0
  - 0.0
  - 1.0e-05
  - 0.0
  - 0.0
  - 0.0
  - 0.0
  - 0.0
  - 0.0
  - 1000000000000.0
  - 0.0
  - 0.0
  - 0.0
  - 0.0
  - 0.0
  - 0.0
  - 1000000000000.0
  - 0.0
  - 0.0
  - 0.0
  - 0.0
  - 0.0
  - 0.0
  - 1000000000000.0
  - 0.0
  - 0.0
  - 0.0
  - 0.0
  - 0.0
  - 0.0
  - 0.001
twist:
  twist:
    linear:
      x: 4.031843814861051e-06
      y: 1.9855042291835876e-08
      z: 0.0
    angular:
      x: 0.0
      y: 0.0
      z: -9.258665755188986e-08
  covariance:
  - 1.0e-05
  - 0.0
  - 0.0
  - 0.0
  - 0.0
  - 0.0
  - 0.0
  - 1.0e-05
  - 0.0
  - 0.0
  - 0.0
  - 0.0
  - 0.0
  - 0.0
  - 1000000000000.0
  - 0.0
  - 0.0
  - 0.0
  - 0.0
  - 0.0
  - 0.0
  - 1000000000000.0
  - 0.0
  - 0.0
  - 0.0
  - 0.0
  - 0.0
  - 0.0
  - 1000000000000.0
  - 0.0
  - 0.0
  - 0.0
  - 0.0
  - 0.0
  - 0.0
  - 0.001
---
header:
  stamp:
    sec: 1113
    nanosec: 262000000
  frame_id: odom
child_frame_id: base_footprint
pose:
  pose:
    position:
      x: 1.536458701690405
      y: -0.5000030273852054
      z: 0.008528821561438521
    orientation:
      x: 4.9316139789600306e-05
      y: 0.002867883389440269
      z: 1.6091721297441526e-05
      w: 0.9999958862684585
  covariance:
  - 1.0e-05
  - 0.0
  - 0.0
  - 0.0
  - 0.0
  - 0.0
  - 0.0
  - 1.0e-05
  - 0.0
  - 0.0
  - 0.0
  - 0.0
  - 0.0
  - 0.0
  - 1000000000000.0
  - 0.0
  - 0.0
  - 0.0
  - 0.0
  - 0.0
  - 0.0
  - 1000000000000.0
  - 0.0
  - 0.0
  - 0.0
  - 0.0
  - 0.0
  - 0.0
  - 1000000000000.0
  - 0.0
  - 0.0
  - 0.0
  - 0.0
  - 0.0
  - 0.0
  - 0.001
twist:
  twist:
    linear:
      x: 3.6946936097188705e-06
      y: 9.06468138520263e-09
      z: 0.0
    angular:
      x: 0.0
      y: 0.0
      z: -1.0438743503939533e-07
  covariance:
  - 1.0e-05
  - 0.0
  - 0.0
  - 0.0
  - 0.0
  - 0.0
  - 0.0
  - 1.0e-05
  - 0.0
  - 0.0
  - 0.0
  - 0.0
  - 0.0
  - 0.0
  - 1000000000000.0
  - 0.0
  - 0.0
  - 0.0
  - 0.0
  - 0.0
  - 0.0
  - 1000000000000.0
  - 0.0
  - 0.0
  - 0.0
  - 0.0
  - 0.0
  - 0.0
  - 1000000000000.0
  - 0.0
  - 0.0
  - 0.0
  - 0.0
  - 0.0
  - 0.0
  - 0.001
---
header:
  stamp:
    sec: 1113
    nanosec: 296000000
  frame_id: odom
child_frame_id: base_footprint
pose:
  pose:
    position:
      x: 1.5364587131830925
      y: -0.5000030273955425
      z: 0.008535627709160713
    orientation:
      x: 4.931609103770907e-05
      y: 0.002868361434889748
      z: 1.6092217809103467e-05
      w: 0.9999958848973541
  covariance:
  - 1.0e-05
  - 0.0
  - 0.0
  - 0.0
  - 0.0
  - 0.0
  - 0.0
  - 1.0e-05
  - 0.0
  - 0.0
  - 0.0
  - 0.0
  - 0.0
  - 0.0
  - 1000000000000.0
  - 0.0
  - 0.0
  - 0.0
  - 0.0
  - 0.0
  - 0.0
  - 1000000000000.0
  - 0.0
  - 0.0
  - 0.0
  - 0.0
  - 0.0
  - 0.0
  - 1000000000000.0
  - 0.0
  - 0.0
  - 0.0
  - 0.0
  - 0.0
  - 0.0
  - 0.001
twist:
  twist:
    linear:
      x: 3.985902208358257e-06
      y: 2.41898491488074e-08
      z: 0.0
    angular:
      x: 0.0
      y: 0.0
      z: -9.543183404583823e-08
  covariance:
  - 1.0e-05
  - 0.0
  - 0.0
  - 0.0
  - 0.0
  - 0.0
  - 0.0
  - 1.0e-05
  - 0.0
  - 0.0
  - 0.0
  - 0.0
  - 0.0
  - 0.0
  - 1000000000000.0
  - 0.0
  - 0.0
  - 0.0
  - 0.0
  - 0.0
  - 0.0
  - 1000000000000.0
  - 0.0
  - 0.0
  - 0.0
  - 0.0
  - 0.0
  - 0.0
  - 1000000000000.0
  - 0.0
  - 0.0
  - 0.0
  - 0.0
  - 0.0
  - 0.0
  - 0.001
---
header:
  stamp:
    sec: 1113
    nanosec: 330000000
  frame_id: odom
child_frame_id: base_footprint
pose:
  pose:
    position:
      x: 1.5364587001241796
      y: -0.500003027319788
      z: 0.008527378675273721
    orientation:
      x: 4.931625074550227e-05
      y: 0.0028676022028145992
      z: 1.6092643982677613e-05
      w: 0.9999958870748122
  covariance:
  - 1.0e-05
  - 0.0
  - 0.0
  - 0.0
  - 0.0
  - 0.0
  - 0.0
  - 1.0e-05
  - 0.0
  - 0.0
  - 0.0
  - 0.0
  - 0.0
  - 0.0
  - 1000000000000.0
  - 0.0
  - 0.0
  - 0.0
  - 0.0
  - 0.0
  - 0.0
  - 1000000000000.0
  - 0.0
  - 0.0
  - 0.0
  - 0.0
  - 0.0
  - 0.0
  - 1000000000000.0
  - 0.0
  - 0.0
  - 0.0
  - 0.0
  - 0.0
  - 0.0
  - 0.001
twist:
  twist:
    linear:
      x: 8.889066476491191e-07
      y: 2.2347739030776406e-09
      z: 0.0
    angular:
      x: 0.0
      y: 0.0
      z: -1.2842729397288634e-07
  covariance:
  - 1.0e-05
  - 0.0
  - 0.0
  - 0.0
  - 0.0
  - 0.0
  - 0.0
  - 1.0e-05
  - 0.0
  - 0.0
  - 0.0
  - 0.0
  - 0.0
  - 0.0
  - 1000000000000.0
  - 0.0
  - 0.0
  - 0.0
  - 0.0
  - 0.0
  - 0.0
  - 1000000000000.0
  - 0.0
  - 0.0
  - 0.0
  - 0.0
  - 0.0
  - 0.0
  - 1000000000000.0
  - 0.0
  - 0.0
  - 0.0
  - 0.0
  - 0.0
  - 0.0
  - 0.001
---
header:
  stamp:
    sec: 1113
    nanosec: 364000000
  frame_id: odom
child_frame_id: base_footprint
pose:
  pose:
    position:
      x: 1.5364586893278769
      y: -0.5000030274178034
      z: 0.00853358922218377
    orientation:
      x: 4.931656440456697e-05
      y: 0.002866963842374861
      z: 1.6093038005255793e-05
      w: 0.9999958889051581
  covariance:
  - 1.0e-05
  - 0.0
  - 0.0
  - 0.0
  - 0.0
  - 0.0
  - 0.0
  - 1.0e-05
  - 0.0
  - 0.0
  - 0.0
  - 0.0
  - 0.0
  - 0.0
  - 1000000000000.0
  - 0.0
  - 0.0
  - 0.0
  - 0.0
  - 0.0
  - 0.0
  - 1000000000000.0
  - 0.0
  - 0.0
  - 0.0
  - 0.0
  - 0.0
  - 0.0
  - 1000000000000.0
  - 0.0
  - 0.0
  - 0.0
  - 0.0
  - 0.0
  - 0.0
  - 0.001
twist:
  twist:
    linear:
      x: 4.271059093505525e-06
      y: 1.5518704047738942e-08
      z: 0.0
    angular:
      x: 0.0
      y: 0.0
      z: -1.0351223611511434e-07
  covariance:
  - 1.0e-05
  - 0.0
  - 0.0
  - 0.0
  - 0.0
  - 0.0
  - 0.0
  - 1.0e-05
  - 0.0
  - 0.0
  - 0.0
  - 0.0
  - 0.0
  - 0.0
  - 1000000000000.0
  - 0.0
  - 0.0
  - 0.0
  - 0.0
  - 0.0
  - 0.0
  - 1000000000000.0
  - 0.0
  - 0.0
  - 0.0
  - 0.0
  - 0.0
  - 0.0
  - 1000000000000.0
  - 0.0
  - 0.0
  - 0.0
  - 0.0
  - 0.0
  - 0.0
  - 0.001
---
header:
  stamp:
    sec: 1113
    nanosec: 398000000
  frame_id: odom
child_frame_id: base_footprint
pose:
  pose:
    position:
      x: 1.5364586728115852
      y: -0.5000030273294017
      z: 0.008529000048538947
    orientation:
      x: 4.931680383785817e-05
      y: 0.002866043003325697
      z: 1.609347063248606e-05
      w: 0.9999958915447384
  covariance:
  - 1.0e-05
  - 0.0
  - 0.0
  - 0.0
  - 0.0
  - 0.0
  - 0.0
  - 1.0e-05
  - 0.0
  - 0.0
  - 0.0
  - 0.0
  - 0.0
  - 0.0
  - 1000000000000.0
  - 0.0
  - 0.0
  - 0.0
  - 0.0
  - 0.0
  - 0.0
  - 1000000000000.0
  - 0.0
  - 0.0
  - 0.0
  - 0.0
  - 0.0
  - 0.0
  - 1000000000000.0
  - 0.0
  - 0.0
  - 0.0
  - 0.0
  - 0.0
  - 0.0
  - 0.001
twist:
  twist:
    linear:
      x: 2.321478632177344e-06
      y: -9.559612170477497e-09
      z: 0.0
    angular:
      x: 0.0
      y: 0.0
      z: -1.1712579701061699e-07
  covariance:
  - 1.0e-05
  - 0.0
  - 0.0
  - 0.0
  - 0.0
  - 0.0
  - 0.0
  - 1.0e-05
  - 0.0
  - 0.0
  - 0.0
  - 0.0
  - 0.0
  - 0.0
  - 1000000000000.0
  - 0.0
  - 0.0
  - 0.0
  - 0.0
  - 0.0
  - 0.0
  - 1000000000000.0
  - 0.0
  - 0.0
  - 0.0
  - 0.0
  - 0.0
  - 0.0
  - 1000000000000.0
  - 0.0
  - 0.0
  - 0.0
  - 0.0
  - 0.0
  - 0.0
  - 0.001
---
header:
  stamp:
    sec: 1113
    nanosec: 432000000
  frame_id: odom
child_frame_id: base_footprint
pose:
  pose:
    position:
      x: 1.5364586712321262
      y: -0.5000030273311971
      z: 0.008529064713896568
    orientation:
      x: 4.9316841014755694e-05
      y: 0.0028658605001449077
      z: 1.6093926744159372e-05
      w: 0.9999958920677767
  covariance:
  - 1.0e-05
  - 0.0
  - 0.0
  - 0.0
  - 0.0
  - 0.0
  - 0.0
  - 1.0e-05
  - 0.0
  - 0.0
  - 0.0
  - 0.0
  - 0.0
  - 0.0
  - 1000000000000.0
  - 0.0
  - 0.0
  - 0.0
  - 0.0
  - 0.0
  - 0.0
  - 1000000000000.0
  - 0.0
  - 0.0
  - 0.0
  - 0.0
  - 0.0
  - 0.0
  - 1000000000000.0
  - 0.0
  - 0.0
  - 0.0
  - 0.0
  - 0.0
  - 0.0
  - 0.001
twist:
  twist:
    linear:
      x: 1.6028086846522305e-06
      y: 1.3025992143909611e-09
      z: 0.0
    angular:
      x: 0.0
      y: 0.0
      z: -1.1960492055440886e-07
  covariance:
  - 1.0e-05
  - 0.0
  - 0.0
  - 0.0
  - 0.0
  - 0.0
  - 0.0
  - 1.0e-05
  - 0.0
  - 0.0
  - 0.0
  - 0.0
  - 0.0
  - 0.0
  - 1000000000000.0
  - 0.0
  - 0.0
  - 0.0
  - 0.0
  - 0.0
  - 0.0
  - 1000000000000.0
  - 0.0
  - 0.0
  - 0.0
  - 0.0
  - 0.0
  - 0.0
  - 1000000000000.0
  - 0.0
  - 0.0
  - 0.0
  - 0.0
  - 0.0
  - 0.0
  - 0.001
---
header:
  stamp:
    sec: 1113
    nanosec: 466000000
  frame_id: odom
child_frame_id: base_footprint
pose:
  pose:
    position:
      x: 1.5364586801229994
      y: -0.5000030274227559
      z: 0.008532281647356104
    orientation:
      x: 4.931674106314862e-05
      y: 0.002866194481793445
      z: 1.6094420360212905e-05
      w: 0.9999958911105691
  covariance:
  - 1.0e-05
  - 0.0
  - 0.0
  - 0.0
  - 0.0
  - 0.0
  - 0.0
  - 1.0e-05
  - 0.0
  - 0.0
  - 0.0
  - 0.0
  - 0.0
  - 0.0
  - 1000000000000.0
  - 0.0
  - 0.0
  - 0.0
  - 0.0
  - 0.0
  - 0.0
  - 1000000000000.0
  - 0.0
  - 0.0
  - 0.0
  - 0.0
  - 0.0
  - 0.0
  - 1000000000000.0
  - 0.0
  - 0.0
  - 0.0
  - 0.0
  - 0.0
  - 0.0
  - 0.001
twist:
  twist:
    linear:
      x: 1.8880965304568518e-06
      y: 1.823416903542004e-08
      z: 0.0
    angular:
      x: 0.0
      y: 0.0
      z: -1.0644336984966122e-07
  covariance:
  - 1.0e-05
  - 0.0
  - 0.0
  - 0.0
  - 0.0
  - 0.0
  - 0.0
  - 1.0e-05
  - 0.0
  - 0.0
  - 0.0
  - 0.0
  - 0.0
  - 0.0
  - 1000000000000.0
  - 0.0
  - 0.0
  - 0.0
  - 0.0
  - 0.0
  - 0.0
  - 1000000000000.0
  - 0.0
  - 0.0
  - 0.0
  - 0.0
  - 0.0
  - 0.0
  - 1000000000000.0
  - 0.0
  - 0.0
  - 0.0
  - 0.0
  - 0.0
  - 0.0
  - 0.001
---
header:
  stamp:
    sec: 1113
    nanosec: 500000000
  frame_id: odom
child_frame_id: base_footprint
pose:
  pose:
    position:
      x: 1.5364586946987522
      y: -0.5000030274130823
      z: 0.008534692066110424
    orientation:
      x: 4.9316531169693496e-05
      y: 0.002866832951332793
      z: 1.609490656615405e-05
      w: 0.9999958892803824
  covariance:
  - 1.0e-05
  - 0.0
  - 0.0
  - 0.0
  - 0.0
  - 0.0
  - 0.0
  - 1.0e-05
  - 0.0
  - 0.0
  - 0.0
  - 0.0
  - 0.0
  - 0.0
  - 1000000000000.0
  - 0.0
  - 0.0
  - 0.0
  - 0.0
  - 0.0
  - 0.0
  - 1000000000000.0
  - 0.0
  - 0.0
  - 0.0
  - 0.0
  - 0.0
  - 0.0
  - 1000000000000.0
  - 0.0
  - 0.0
  - 0.0
  - 0.0
  - 0.0
  - 0.0
  - 0.001
twist:
  twist:
    linear:
      x: 4.0237810974766185e-06
      y: 1.9859215596139533e-08
      z: 0.0
    angular:
      x: 0.0
      y: 0.0
      z: -9.216483510020145e-08
  covariance:
  - 1.0e-05
  - 0.0
  - 0.0
  - 0.0
  - 0.0
  - 0.0
  - 0.0
  - 1.0e-05
  - 0.0
  - 0.0
  - 0.0
  - 0.0
  - 0.0
  - 0.0
  - 1000000000000.0
  - 0.0
  - 0.0
  - 0.0
  - 0.0
  - 0.0
  - 0.0
  - 1000000000000.0
  - 0.0
  - 0.0
  - 0.0
  - 0.0
  - 0.0
  - 0.0
  - 1000000000000.0
  - 0.0
  - 0.0
  - 0.0
  - 0.0
  - 0.0
  - 0.0
  - 0.001
---
header:
  stamp:
    sec: 1113
    nanosec: 534000000
  frame_id: odom
child_frame_id: base_footprint
pose:
  pose:
    position:
      x: 1.5364587141238355
      y: -0.5000030274030615
      z: 0.008533072410142818
    orientation:
      x: 4.931619741099991e-05
      y: 0.0028677046532506385
      z: 1.6095410644355e-05
      w: 0.9999958867809768
  covariance:
  - 1.0e-05
  - 0.0
  - 0.0
  - 0.0
  - 0.0
  - 0.0
  - 0.0
  - 1.0e-05
  - 0.0
  - 0.0
  - 0.0
  - 0.0
  - 0.0
  - 0.0
  - 1000000000000.0
  - 0.0
  - 0.0
  - 0.0
  - 0.0
  - 0.0
  - 0.0
  - 1000000000000.0
  - 0.0
  - 0.0
  - 0.0
  - 0.0
  - 0.0
  - 0.0
  - 1000000000000.0
  - 0.0
  - 0.0
  - 0.0
  - 0.0
  - 0.0
  - 0.0
  - 0.001
twist:
  twist:
    linear:
      x: 5.0503600751543574e-06
      y: 9.10489658827766e-09
      z: 0.0
    angular:
      x: 0.0
      y: 0.0
      z: -9.410418522451751e-08
  covariance:
  - 1.0e-05
  - 0.0
  - 0.0
  - 0.0
  - 0.0
  - 0.0
  - 0.0
  - 1.0e-05
  - 0.0
  - 0.0
  - 0.0
  - 0.0
  - 0.0
  - 0.0
  - 1000000000000.0
  - 0.0
  - 0.0
  - 0.0
  - 0.0
  - 0.0
  - 0.0
  - 1000000000000.0
  - 0.0
  - 0.0
  - 0.0
  - 0.0
  - 0.0
  - 0.0
  - 1000000000000.0
  - 0.0
  - 0.0
  - 0.0
  - 0.0
  - 0.0
  - 0.0
  - 0.001
---
header:
  stamp:
    sec: 1113
    nanosec: 568000000
  frame_id: odom
child_frame_id: base_footprint
pose:
  pose:
    position:
      x: 1.5364587321561565
      y: -0.5000030273375253
      z: 0.008527277251163567
    orientation:
      x: 4.931585377080892e-05
      y: 0.002868498097418826
      z: 1.6095954966541707e-05
      w: 0.9999958845052974
  covariance:
  - 1.0e-05
  - 0.0
  - 0.0
  - 0.0
  - 0.0
  - 0.0
  - 0.0
  - 1.0e-05
  - 0.0
  - 0.0
  - 0.0
  - 0.0
  - 0.0
  - 0.0
  - 1000000000000.0
  - 0.0
  - 0.0
  - 0.0
  - 0.0
  - 0.0
  - 0.0
  - 1000000000000.0
  - 0.0
  - 0.0
  - 0.0
  - 0.0
  - 0.0
  - 0.0
  - 1000000000000.0
  - 0.0
  - 0.0
  - 0.0
  - 0.0
  - 0.0
  - 0.0
  - 0.001
twist:
  twist:
    linear:
      x: 1.613920646763129e-06
      y: 2.5765148913441237e-09
      z: 0.0
    angular:
      x: 0.0
      y: 0.0
      z: -1.1778351540558077e-07
  covariance:
  - 1.0e-05
  - 0.0
  - 0.0
  - 0.0
  - 0.0
  - 0.0
  - 0.0
  - 1.0e-05
  - 0.0
  - 0.0
  - 0.0
  - 0.0
  - 0.0
  - 0.0
  - 1000000000000.0
  - 0.0
  - 0.0
  - 0.0
  - 0.0
  - 0.0
  - 0.0
  - 1000000000000.0
  - 0.0
  - 0.0
  - 0.0
  - 0.0
  - 0.0
  - 0.0
  - 1000000000000.0
  - 0.0
  - 0.0
  - 0.0
  - 0.0
  - 0.0
  - 0.0
  - 0.001
---
header:
  stamp:
    sec: 1113
    nanosec: 602000000
  frame_id: odom
child_frame_id: base_footprint
pose:
  pose:
    position:
      x: 1.536458736271185
      y: -0.5000030274105229
      z: 0.008529730959032852
    orientation:
      x: 4.931588080372427e-05
      y: 0.00286860155895854
      z: 1.609642028493879e-05
      w: 0.9999958842085026
  covariance:
  - 1.0e-05
  - 0.0
  - 0.0
  - 0.0
  - 0.0
  - 0.0
  - 0.0
  - 1.0e-05
  - 0.0
  - 0.0
  - 0.0
  - 0.0
  - 0.0
  - 0.0
  - 1000000000000.0
  - 0.0
  - 0.0
  - 0.0
  - 0.0
  - 0.0
  - 0.0
  - 1000000000000.0
  - 0.0
  - 0.0
  - 0.0
  - 0.0
  - 0.0
  - 0.0
  - 1000000000000.0
  - 0.0
  - 0.0
  - 0.0
  - 0.0
  - 0.0
  - 0.0
  - 0.001
twist:
  twist:
    linear:
      x: 3.664250476557395e-06
      y: 8.23017494592428e-09
      z: 0.0
    angular:
      x: 0.0
      y: 0.0
      z: -1.0852748860440348e-07
  covariance:
  - 1.0e-05
  - 0.0
  - 0.0
  - 0.0
  - 0.0
  - 0.0
  - 0.0
  - 1.0e-05
  - 0.0
  - 0.0
  - 0.0
  - 0.0
  - 0.0
  - 0.0
  - 1000000000000.0
  - 0.0
  - 0.0
  - 0.0
  - 0.0
  - 0.0
  - 0.0
  - 1000000000000.0
  - 0.0
  - 0.0
  - 0.0
  - 0.0
  - 0.0
  - 0.0
  - 1000000000000.0
  - 0.0
  - 0.0
  - 0.0
  - 0.0
  - 0.0
  - 0.0
  - 0.001
---
header:
  stamp:
    sec: 1113
    nanosec: 636000000
  frame_id: odom
child_frame_id: base_footprint
pose:
  pose:
    position:
      x: 1.536458737064144
      y: -0.5000030274294767
      z: 0.008533799841626976
    orientation:
      x: 4.931599090352837e-05
      y: 0.0028685376763446335
      z: 1.6096854699192026e-05
      w: 0.9999958843917427
  covariance:
  - 1.0e-05
  - 0.0
  - 0.0
  - 0.0
  - 0.0
  - 0.0
  - 0.0
  - 1.0e-05
  - 0.0
  - 0.0
  - 0.0
  - 0.0
  - 0.0
  - 0.0
  - 1000000000000.0
  - 0.0
  - 0.0
  - 0.0
  - 0.0
  - 0.0
  - 0.0
  - 1000000000000.0
  - 0.0
  - 0.0
  - 0.0
  - 0.0
  - 0.0
  - 0.0
  - 1000000000000.0
  - 0.0
  - 0.0
  - 0.0
  - 0.0
  - 0.0
  - 0.0
  - 0.001
twist:
  twist:
    linear:
      x: 2.574891439557665e-06
      y: 2.1789479208356994e-08
      z: 0.0
    angular:
      x: 0.0
      y: 0.0
      z: -1.0660707184507515e-07
  covariance:
  - 1.0e-05
  - 0.0
  - 0.0
  - 0.0
  - 0.0
  - 0.0
  - 0.0
  - 1.0e-05
  - 0.0
  - 0.0
  - 0.0
  - 0.0
  - 0.0
  - 0.0
  - 1000000000000.0
  - 0.0
  - 0.0
  - 0.0
  - 0.0
  - 0.0
  - 0.0
  - 1000000000000.0
  - 0.0
  - 0.0
  - 0.0
  - 0.0
  - 0.0
  - 0.0
  - 1000000000000.0
  - 0.0
  - 0.0
  - 0.0
  - 0.0
  - 0.0
  - 0.0
  - 0.001
---
header:
  stamp:
    sec: 1113
    nanosec: 670000000
  frame_id: odom
child_frame_id: base_footprint
pose:
  pose:
    position:
      x: 1.5364587157405873
      y: -0.5000030273516268
      z: 0.00852903176376032
    orientation:
      x: 4.931633981312219e-05
      y: 0.0028673786386130555
      z: 1.6097253879719655e-05
      w: 0.9999958877158045
  covariance:
  - 1.0e-05
  - 0.0
  - 0.0
  - 0.0
  - 0.0
  - 0.0
  - 0.0
  - 1.0e-05
  - 0.0
  - 0.0
  - 0.0
  - 0.0
  - 0.0
  - 0.0
  - 1000000000000.0
  - 0.0
  - 0.0
  - 0.0
  - 0.0
  - 0.0
  - 0.0
  - 1000000000000.0
  - 0.0
  - 0.0
  - 0.0
  - 0.0
  - 0.0
  - 0.0
  - 1000000000000.0
  - 0.0
  - 0.0
  - 0.0
  - 0.0
  - 0.0
  - 0.0
  - 0.001
twist:
  twist:
    linear:
      x: 2.310007461947314e-06
      y: -8.749180453978745e-09
      z: 0.0
    angular:
      x: 0.0
      y: 0.0
      z: -1.1824984389687623e-07
  covariance:
  - 1.0e-05
  - 0.0
  - 0.0
  - 0.0
  - 0.0
  - 0.0
  - 0.0
  - 1.0e-05
  - 0.0
  - 0.0
  - 0.0
  - 0.0
  - 0.0
  - 0.0
  - 1000000000000.0
  - 0.0
  - 0.0
  - 0.0
  - 0.0
  - 0.0
  - 0.0
  - 1000000000000.0
  - 0.0
  - 0.0
  - 0.0
  - 0.0
  - 0.0
  - 0.0
  - 1000000000000.0
  - 0.0
  - 0.0
  - 0.0
  - 0.0
  - 0.0
  - 0.0
  - 0.001
---
header:
  stamp:
    sec: 1113
    nanosec: 704000000
  frame_id: odom
child_frame_id: base_footprint
pose:
  pose:
    position:
      x: 1.5364586999593002
      y: -0.5000030274521058
      z: 0.008534229612949917
    orientation:
      x: 4.9316720791029795e-05
      y: 0.002866486789506062
      z: 1.609767848380367e-05
      w: 0.9999958902726608
  covariance:
  - 1.0e-05
  - 0.0
  - 0.0
  - 0.0
  - 0.0
  - 0.0
  - 0.0
  - 1.0e-05
  - 0.0
  - 0.0
  - 0.0
  - 0.0
  - 0.0
  - 0.0
  - 1000000000000.0
  - 0.0
  - 0.0
  - 0.0
  - 0.0
  - 0.0
  - 0.0
  - 1000000000000.0
  - 0.0
  - 0.0
  - 0.0
  - 0.0
  - 0.0
  - 0.0
  - 1000000000000.0
  - 0.0
  - 0.0
  - 0.0
  - 0.0
  - 0.0
  - 0.0
  - 0.001
twist:
  twist:
    linear:
      x: 3.750252989924075e-06
      y: 2.1167735173894477e-08
      z: 0.0
    angular:
      x: 0.0
      y: 0.0
      z: -9.842347896482635e-08
  covariance:
  - 1.0e-05
  - 0.0
  - 0.0
  - 0.0
  - 0.0
  - 0.0
  - 0.0
  - 1.0e-05
  - 0.0
  - 0.0
  - 0.0
  - 0.0
  - 0.0
  - 0.0
  - 1000000000000.0
  - 0.0
  - 0.0
  - 0.0
  - 0.0
  - 0.0
  - 0.0
  - 1000000000000.0
  - 0.0
  - 0.0
  - 0.0
  - 0.0
  - 0.0
  - 0.0
  - 1000000000000.0
  - 0.0
  - 0.0
  - 0.0
  - 0.0
  - 0.0
  - 0.0
  - 0.001
---
header:
  stamp:
    sec: 1113
    nanosec: 738000000
  frame_id: odom
child_frame_id: base_footprint
pose:
  pose:
    position:
      x: 1.5364586846944133
      y: -0.5000030274313264
      z: 0.008531752103667349
    orientation:
      x: 4.931695913168989e-05
      y: 0.0028656224661635313
      z: 1.6098086600222064e-05
      w: 0.9999958927498505
  covariance:
  - 1.0e-05
  - 0.0
  - 0.0
  - 0.0
  - 0.0
  - 0.0
  - 0.0
  - 1.0e-05
  - 0.0
  - 0.0
  - 0.0
  - 0.0
  - 0.0
  - 0.0
  - 1000000000000.0
  - 0.0
  - 0.0
  - 0.0
  - 0.0
  - 0.0
  - 0.0
  - 1000000000000.0
  - 0.0
  - 0.0
  - 0.0
  - 0.0
  - 0.0
  - 0.0
  - 1000000000000.0
  - 0.0
  - 0.0
  - 0.0
  - 0.0
  - 0.0
  - 0.0
  - 0.001
twist:
  twist:
    linear:
      x: 3.6250796102495954e-06
      y: 5.6921908488604895e-09
      z: 0.0
    angular:
      x: 0.0
      y: 0.0
      z: -1.0849400981078745e-07
  covariance:
  - 1.0e-05
  - 0.0
  - 0.0
  - 0.0
  - 0.0
  - 0.0
  - 0.0
  - 1.0e-05
  - 0.0
  - 0.0
  - 0.0
  - 0.0
  - 0.0
  - 0.0
  - 1000000000000.0
  - 0.0
  - 0.0
  - 0.0
  - 0.0
  - 0.0
  - 0.0
  - 1000000000000.0
  - 0.0
  - 0.0
  - 0.0
  - 0.0
  - 0.0
  - 0.0
  - 1000000000000.0
  - 0.0
  - 0.0
  - 0.0
  - 0.0
  - 0.0
  - 0.0
  - 0.001
---
header:
  stamp:
    sec: 1113
    nanosec: 772000000
  frame_id: odom
child_frame_id: base_footprint
pose:
  pose:
    position:
      x: 1.5364586797869955
      y: -0.500003027401748
      z: 0.00852954374986135
    orientation:
      x: 4.9317008697059304e-05
      y: 0.0028652781680697
      z: 1.6098537690912005e-05
      w: 0.999995893736414
  covariance:
  - 1.0e-05
  - 0.0
  - 0.0
  - 0.0
  - 0.0
  - 0.0
  - 0.0
  - 1.0e-05
  - 0.0
  - 0.0
  - 0.0
  - 0.0
  - 0.0
  - 0.0
  - 1000000000000.0
  - 0.0
  - 0.0
  - 0.0
  - 0.0
  - 0.0
  - 0.0
  - 1000000000000.0
  - 0.0
  - 0.0
  - 0.0
  - 0.0
  - 0.0
  - 0.0
  - 1000000000000.0
  - 0.0
  - 0.0
  - 0.0
  - 0.0
  - 0.0
  - 0.0
  - 0.001
twist:
  twist:
    linear:
      x: 2.995702096233121e-06
      y: -4.0889497949323325e-09
      z: 0.0
    angular:
      x: 0.0
      y: 0.0
      z: -1.102177076154203e-07
  covariance:
  - 1.0e-05
  - 0.0
  - 0.0
  - 0.0
  - 0.0
  - 0.0
  - 0.0
  - 1.0e-05
  - 0.0
  - 0.0
  - 0.0
  - 0.0
  - 0.0
  - 0.0
  - 1000000000000.0
  - 0.0
  - 0.0
  - 0.0
  - 0.0
  - 0.0
  - 0.0
  - 1000000000000.0
  - 0.0
  - 0.0
  - 0.0
  - 0.0
  - 0.0
  - 0.0
  - 1000000000000.0
  - 0.0
  - 0.0
  - 0.0
  - 0.0
  - 0.0
  - 0.0
  - 0.001
---
header:
  stamp:
    sec: 1113
    nanosec: 806000000
  frame_id: odom
child_frame_id: base_footprint
pose:
  pose:
    position:
      x: 1.5364586852044018
      y: -0.500003027339504
      z: 0.00852868409727508
    orientation:
      x: 4.9316894953277e-05
      y: 0.002865454566028122
      z: 1.609902875099277e-05
      w: 0.9999958932309649
  covariance:
  - 1.0e-05
  - 0.0
  - 0.0
  - 0.0
  - 0.0
  - 0.0
  - 0.0
  - 1.0e-05
  - 0.0
  - 0.0
  - 0.0
  - 0.0
  - 0.0
  - 0.0
  - 1000000000000.0
  - 0.0
  - 0.0
  - 0.0
  - 0.0
  - 0.0
  - 0.0
  - 1000000000000.0
  - 0.0
  - 0.0
  - 0.0
  - 0.0
  - 0.0
  - 0.0
  - 1000000000000.0
  - 0.0
  - 0.0
  - 0.0
  - 0.0
  - 0.0
  - 0.0
  - 0.001
twist:
  twist:
    linear:
      x: 2.31159367806628e-06
      y: -4.7883187831767456e-09
      z: 0.0
    angular:
      x: 0.0
      y: 0.0
      z: -1.1384009055863964e-07
  covariance:
  - 1.0e-05
  - 0.0
  - 0.0
  - 0.0
  - 0.0
  - 0.0
  - 0.0
  - 1.0e-05
  - 0.0
  - 0.0
  - 0.0
  - 0.0
  - 0.0
  - 0.0
  - 1000000000000.0
  - 0.0
  - 0.0
  - 0.0
  - 0.0
  - 0.0
  - 0.0
  - 1000000000000.0
  - 0.0
  - 0.0
  - 0.0
  - 0.0
  - 0.0
  - 0.0
  - 1000000000000.0
  - 0.0
  - 0.0
  - 0.0
  - 0.0
  - 0.0
  - 0.0
  - 0.001
---
header:
  stamp:
    sec: 1113
    nanosec: 840000000
  frame_id: odom
child_frame_id: base_footprint
pose:
  pose:
    position:
      x: 1.5364587013817557
      y: -0.5000030274097553
      z: 0.008530184300202736
    orientation:
      x: 4.9316641408692117e-05
      y: 0.0028661480438396934
      z: 1.6099540992512425e-05
      w: 0.9999958912435915
  covariance:
  - 1.0e-05
  - 0.0
  - 0.0
  - 0.0
  - 0.0
  - 0.0
  - 0.0
  - 1.0e-05
  - 0.0
  - 0.0
  - 0.0
  - 0.0
  - 0.0
  - 0.0
  - 1000000000000.0
  - 0.0
  - 0.0
  - 0.0
  - 0.0
  - 0.0
  - 0.0
  - 1000000000000.0
  - 0.0
  - 0.0
  - 0.0
  - 0.0
  - 0.0
  - 0.0
  - 1000000000000.0
  - 0.0
  - 0.0
  - 0.0
  - 0.0
  - 0.0
  - 0.0
  - 0.001
twist:
  twist:
    linear:
      x: 1.7274451852126172e-06
      y: 1.1346376967448637e-08
      z: 0.0
    angular:
      x: 0.0
      y: 0.0
      z: -1.170849720702882e-07
  covariance:
  - 1.0e-05
  - 0.0
  - 0.0
  - 0.0
  - 0.0
  - 0.0
  - 0.0
  - 1.0e-05
  - 0.0
  - 0.0
  - 0.0
  - 0.0
  - 0.0
  - 0.0
  - 1000000000000.0
  - 0.0
  - 0.0
  - 0.0
  - 0.0
  - 0.0
  - 0.0
  - 1000000000000.0
  - 0.0
  - 0.0
  - 0.0
  - 0.0
  - 0.0
  - 0.0
  - 1000000000000.0
  - 0.0
  - 0.0
  - 0.0
  - 0.0
  - 0.0
  - 0.0
  - 0.001
---
header:
  stamp:
    sec: 1113
    nanosec: 874000000
  frame_id: odom
child_frame_id: base_footprint
pose:
  pose:
    position:
      x: 1.5364587260793667
      y: -0.5000030274506495
      z: 0.008533864800799108
    orientation:
      x: 4.931628174691461e-05
      y: 0.0028672843774210947
      z: 1.6100044852738587e-05
      w: 0.9999958879860416
  covariance:
  - 1.0e-05
  - 0.0
  - 0.0
  - 0.0
  - 0.0
  - 0.0
  - 0.0
  - 1.0e-05
  - 0.0
  - 0.0
  - 0.0
  - 0.0
  - 0.0
  - 0.0
  - 1000000000000.0
  - 0.0
  - 0.0
  - 0.0
  - 0.0
  - 0.0
  - 0.0
  - 1000000000000.0
  - 0.0
  - 0.0
  - 0.0
  - 0.0
  - 0.0
  - 0.0
  - 1000000000000.0
  - 0.0
  - 0.0
  - 0.0
  - 0.0
  - 0.0
  - 0.0
  - 0.001
twist:
  twist:
    linear:
      x: 3.339282412210679e-06
      y: 1.9290535840420142e-08
      z: 0.0
    angular:
      x: 0.0
      y: 0.0
      z: -9.593960382180194e-08
  covariance:
  - 1.0e-05
  - 0.0
  - 0.0
  - 0.0
  - 0.0
  - 0.0
  - 0.0
  - 1.0e-05
  - 0.0
  - 0.0
  - 0.0
  - 0.0
  - 0.0
  - 0.0
  - 1000000000000.0
  - 0.0
  - 0.0
  - 0.0
  - 0.0
  - 0.0
  - 0.0
  - 1000000000000.0
  - 0.0
  - 0.0
  - 0.0
  - 0.0
  - 0.0
  - 0.0
  - 1000000000000.0
  - 0.0
  - 0.0
  - 0.0
  - 0.0
  - 0.0
  - 0.0
  - 0.001
---
header:
  stamp:
    sec: 1113
    nanosec: 908000000
  frame_id: odom
child_frame_id: base_footprint
pose:
  pose:
    position:
      x: 1.5364587437601345
      y: -0.5000030274584464
      z: 0.00853029381485674
    orientation:
      x: 4.931596336272961e-05
      y: 0.0028680660483875403
      z: 1.6100566611644568e-05
      w: 0.9999958857444614
  covariance:
  - 1.0e-05
  - 0.0
  - 0.0
  - 0.0
  - 0.0
  - 0.0
  - 0.0
  - 1.0e-05
  - 0.0
  - 0.0
  - 0.0
  - 0.0
  - 0.0
  - 0.0
  - 1000000000000.0
  - 0.0
  - 0.0
  - 0.0
  - 0.0
  - 0.0
  - 0.0
  - 1000000000000.0
  - 0.0
  - 0.0
  - 0.0
  - 0.0
  - 0.0
  - 0.0
  - 1000000000000.0
  - 0.0
  - 0.0
  - 0.0
  - 0.0
  - 0.0
  - 0.0
  - 0.001
twist:
  twist:
    linear:
      x: 4.3569937952767456e-06
      y: 1.2413689738193857e-08
      z: 0.0
    angular:
      x: 0.0
      y: 0.0
      z: -9.848774582258454e-08
  covariance:
  - 1.0e-05
  - 0.0
  - 0.0
  - 0.0
  - 0.0
  - 0.0
  - 0.0
  - 1.0e-05
  - 0.0
  - 0.0
  - 0.0
  - 0.0
  - 0.0
  - 0.0
  - 1000000000000.0
  - 0.0
  - 0.0
  - 0.0
  - 0.0
  - 0.0
  - 0.0
  - 1000000000000.0
  - 0.0
  - 0.0
  - 0.0
  - 0.0
  - 0.0
  - 0.0
  - 1000000000000.0
  - 0.0
  - 0.0
  - 0.0
  - 0.0
  - 0.0
  - 0.0
  - 0.001
---
header:
  stamp:
    sec: 1113
    nanosec: 942000000
  frame_id: odom
child_frame_id: base_footprint
pose:
  pose:
    position:
      x: 1.5364587621384127
      y: -0.5000030274557665
      z: 0.00853490138125599
    orientation:
      x: 4.9315772370326934e-05
      y: 0.0028688830784039518
      z: 1.6101087126259163e-05
      w: 0.9999958834008228
  covariance:
  - 1.0e-05
  - 0.0
  - 0.0
  - 0.0
  - 0.0
  - 0.0
  - 0.0
  - 1.0e-05
  - 0.0
  - 0.0
  - 0.0
  - 0.0
  - 0.0
  - 0.0
  - 1000000000000.0
  - 0.0
  - 0.0
  - 0.0
  - 0.0
  - 0.0
  - 0.0
  - 1000000000000.0
  - 0.0
  - 0.0
  - 0.0
  - 0.0
  - 0.0
  - 0.0
  - 1000000000000.0
  - 0.0
  - 0.0
  - 0.0
  - 0.0
  - 0.0
  - 0.0
  - 0.001
twist:
  twist:
    linear:
      x: 3.2978898177145147e-06
      y: 2.2433763550775446e-08
      z: 0.0
    angular:
      x: 0.0
      y: 0.0
      z: -9.96603573716829e-08
  covariance:
  - 1.0e-05
  - 0.0
  - 0.0
  - 0.0
  - 0.0
  - 0.0
